time,timestamp,recordtime,lat,long,alt,speed,course,verticalAccuracy,horizontalAccuracy,locTimeStamp,accelerationX,accelerationY,accelerationZ,HeadingX,HeadingY,HeadingZ,TrueHeading,MagneticHeading,HeadingAccuracy,RotationX,RotationY,RotationZ,motionYaw,motionRoll,motionPitch,motionRotationRateX,motionRotationRateY,motionRotationRateZ,motionUserAccelerationX,motionUserAccelerationY,motionUserAccelerationZ,en0,pdp_ip0,DeviceOrientation,State
2014-11-19 08:57:45.696,1,1,52.33705,4.843468,8.319668,20.44,93.05875,6,5,1416383865,0.0806427,-0.4734802,-0.7419281,-16.14367,27.67606,-15.92525,53.06408,52.48165,26,0.04704554,0.9128267,0.4871223,0.1783603,0.2536548,0.6368796,0.07435028,0.8879893,0.4615479,-0.1116289,0.1097959,0.04115437,0.0.0.0,10.167.22.1,1,0
2014-11-19 08:57:46.695,2,2,52.33704,4.843778,8.393764,20.03,92.07,6,5,1416383866,-0.7679138,0.02275085,-1.0784,-22.94859,32.63707,2.281387,63.01468,62.43224,26,-0.2999492,-0.8103959,1.792917,0.1327813,-0.4999467,0.05921629,-0.7161857,-0.6697808,1.959598,-0.1525345,0.02713824,-0.3281385,0.0.0.0,10.167.22.1,1,0
2014-11-19 08:57:47.694,3,3,52.33704,4.844066,6.888027,19.55,91.40625,6,5,1416383867,-0.495575,0.2794189,-0.7411499,-14.48985,52.77496,6.044159,35.82151,35.23907,26,-0.2801928,0.02639992,0.6694021,0.5164751,-0.5334769,-0.1391865,-0.2619906,0.09183144,0.7566372,0.03074245,0.08985443,0.007380233,0.0.0.0,10.167.22.1,3,0
2014-11-19 08:57:48.696,4,4,52.33704,4.844355,7.541286,19.22,90.35156,6,5,1416383868,-0.5584564,0.1831512,-0.7892456,-12.71541,51.82422,6.904755,39.54594,38.9635,26,0.4981901,1.143497,-0.1496696,0.4347579,-0.5245517,-0.09323312,0.5483004,1.02337,-0.1882777,0.01001778,0.03391606,0.0734593,0.0.0.0,10.167.22.1,3,0
2014-11-19 08:57:49.694,5,5,52.33706,4.844637,8.779202,18.44,89.29688,6,5,1416383869,-0.2514191,-0.01661682,-0.9635162,-14.14529,54.15775,2.770737,38.54192,37.95948,26,0.04625564,-0.02686597,0.01341354,0.4900744,-0.2957627,-0.04704754,-0.0005927329,-0.02989426,0.0149281,0.007089408,0.005093832,-0.00361534,0.0.0.0,10.167.22.1,5,0
2014-11-19 08:57:50.695,6,6,52.33707,4.844907,9.522121,17.67,88.24219,6,5,1416383870,-0.3291473,0.04353333,-0.9273682,-10.42412,54.12323,0.273407,38.1713,37.58887,26,0.0254521,0.02115109,-0.00117765,0.5093375,-0.290859,-0.04052327,-0.002388128,0.01279173,0.0297317,-0.04109685,0.03729239,-0.0003539066,0.0.0.0,10.167.22.1,5,0
2014-11-19 08:57:51.695,7,7,52.33706,4.845151,9.676052,17.22,87.1875,6,5,1416383871,-0.2905579,0.08610535,-0.8850098,-13.16331,52.58475,0.661438,37.58865,37.00621,26,0.007572965,0.01336427,-0.02730033,0.5282643,-0.3020758,-0.06755378,0.01449373,0.01274416,0.01523734,-0.009984393,0.03395328,0.04118169,0.0.0.0,10.167.22.1,5,0
2014-11-19 08:57:52.696,8,8,52.33707,4.845397,9.063442,16.52,86.48438,6,5,1416383872,-0.3348999,0.01901245,-0.9437408,-12.61203,52.82678,0.2227783,36.85161,36.26918,26,0.01451263,0.00821452,-0.003530553,0.5412584,-0.305487,-0.06694134,-0.01535023,0.008361572,0.01229787,0.07881638,-0.0338103,0.04827476,0.0.0.0,10.167.22.1,5,0
2014-11-19 08:57:53.695,9,9,52.33709,4.845613,8.617947,15.65,85.78125,4,5,1416383873,-0.297348,0.09281921,-0.8984375,-11.73342,53.12062,1.117111,36.19381,35.61137,26,0.01552836,-0.002568885,0.001275122,0.5482463,-0.3129331,-0.08260063,-0.007945001,0.007184331,0.005366991,-0.0097273,0.01505796,0.007883172,0.0.0.0,10.167.22.1,5,0
2014-11-19 08:57:54.695,10,10,52.3371,4.845833,8.43185,14.96,83.99099,6,5,1416383874,-0.3383789,0.08100891,-0.9245605,-12.64647,55.79994,2.483902,35.52605,34.94361,26,0.02618606,-0.01103268,0.00255983,0.5532578,-0.3181931,-0.1132252,-0.001085495,-0.01791646,0.004884358,-0.004170016,-0.02080509,-0.0009053128,0.0.0.0,10.167.22.1,5,0
2014-11-19 08:57:55.695,11,11,52.33711,4.846036,9.219326,13.75,85.9407,4,5,1416383875,-0.288208,0.1277924,-0.894516,-17.67692,62.12654,6.196045,34.93875,34.35632,26,0.01769165,-0.01577603,0.008470717,0.5630105,-0.323058,-0.1157758,-0.000627298,0.01175526,0.00783137,-0.008845649,0.03789456,0.006038238,0.0.0.0,10.167.22.1,5,0
2014-11-19 08:57:56.695,12,12,52.33712,4.846226,10.21981,12.6,84.83476,6,5,1416383876,-0.3418579,0.08744812,-0.9500732,-123.9367,49.85364,12.57433,34.29171,33.70927,26,-0.007799067,-0.0253714,0.03566265,0.5767515,-0.3157295,-0.118191,-0.05016093,-0.01067578,0.03688582,0.02060875,-0.00295626,0.04359369,0.0.0.0,10.167.22.1,5,0
2014-11-19 08:57:57.695,13,13,52.33713,4.846406,12.16806,11.52,84.83476,6,5,1416383877,-0.2436523,0.04574585,-0.9163818,-126.228,56.43951,12.52368,33.63347,33.05104,26,0.01884506,-0.021676,0.003767574,0.5881289,-0.3192142,-0.09452119,0.003160448,0.005596245,0.01757662,0.01644497,-0.04247011,-0.007697878,0.0.0.0,10.167.22.1,5,0
2014-11-19 08:57:58.695,14,14,52.33714,4.846545,11.55337,10.61,84.69595,6,5,1416383878,-0.3953857,0.05451965,-0.7948151,-135.1863,59.55095,6.010452,33.13469,32.55225,26,0.01399944,-0.02171595,0.01085611,0.5941839,-0.3239879,-0.0766179,0.008165398,0.004349019,0.0123693,-0.02169575,-0.05176268,-0.02952386,0.0.0.0,10.167.22.1,5,0
2014-11-19 08:57:59.695,15,15,52.33715,4.846711,11.81399,10.01,84.69595,6,5,1416383879,-0.3354187,-0.04621887,-0.9385223,-115.2712,61.93639,2.062088,32.80177,32.21933,26,0.01653237,-0.01685941,0.001359011,0.5992732,-0.331908,-0.02584532,-0.0009848991,0.004448879,0.004641828,0.04978343,-0.081064,-0.01309956,0.0.0.0,10.167.22.1,5,0
2014-11-19 08:58:00.695,16,16,52.33716,4.84686,11.72592,9.77,84.69595,6,5,1416383880,-0.2848358,-0.006942749,-0.8938751,-108.6041,49.54247,-18.16942,32.5943,32.01187,26,0.01445111,0.006947388,0.002402704,0.6078156,-0.3271698,-0.01879853,-0.007988978,0.01395334,0.01357071,0.03647162,-0.02574017,0.05291323,0.0.0.0,10.167.22.1,5,0
2014-11-19 08:58:01.695,17,17,52.33717,4.847002,11.32754,9.94,86.76043,6,5,1416383881,-0.2473907,-0.07972717,-0.9165802,-92.08288,49.62897,-21.72971,32.31956,31.73713,26,0.0001280981,0.004867726,-0.008323976,0.6115639,-0.3184884,-0.004360788,-0.01615432,0.01666184,-0.002319436,0.03833286,-0.0972105,0.02901598,0.0.0.0,10.167.22.1,5,0
2014-11-19 08:58:02.695,18,18,52.33717,4.847159,11.71786,9.94,83.77417,6,5,1416383882,-0.2682037,-0.1160126,-0.9394379,-91.7211,50.51054,-28.56349,32.24633,31.6639,26,0.02394235,-0.01423353,-0.02351172,0.6127912,-0.3128015,0.04455192,0.009077933,-0.005047545,-0.001401502,0.01442078,-0.05513323,0.04046639,0.0.0.0,10.167.22.1,5,0
2014-11-19 08:58:03.695,19,19,52.33718,4.847314,11.34652,10.51,84.73591,6,5,1416383883,-0.3878174,-0.1785431,-0.9112091,-117.8726,42.17882,-36.52788,32.22674,31.6443,26,0.05014892,-0.005474926,0.01212937,0.6210786,-0.3154064,0.04068533,0.02098333,0.0006503005,0.006574975,-0.0002040031,-0.0739194,0.01218532,0.0.0.0,10.167.22.1,5,0
2014-11-19 08:58:04.695,20,20,52.33718,4.847475,11.3674,11.22,84.73591,6,5,1416383884,-0.3362274,-0.06469727,-0.8934631,-120.0433,42.59367,-32.98444,31.97546,31.39302,26,0.03220934,-0.009878463,0.0002119876,0.6276661,-0.3196151,0.02986678,0.01363299,-0.0005295671,0.006243339,0.02344212,-0.03065402,0.01038018,0.0.0.0,10.167.22.1,5,0
2014-11-19 08:58:05.696,21,21,52.33719,4.847649,10.93979,11.74,84.73591,6,5,1416383885,-0.2534943,-0.1146088,-0.9821625,-128.6054,45.65321,-33.00125,31.77773,31.19529,26,0.01794118,-0.00721477,-0.009355685,0.6285269,-0.3161381,0.06363122,0.02207147,-0.007825952,0.009473263,-0.1348449,-0.05173764,0.05902381,0.0.0.0,10.167.22.1,5,0
2014-11-19 08:58:06.696,22,22,52.3372,4.847825,10.91018,12.35,84.85212,6,5,1416383886,-0.2839661,-0.0050354,-0.9178009,-120.6807,45.96432,-20.27858,31.74127,31.15884,26,-0.01458826,-0.01764051,-0.003530286,0.6270444,-0.3206232,0.05558454,-0.04380616,0.001129427,0.01120082,-0.04171293,0.078261,0.03096275,0.0.0.0,10.167.22.1,5,0
2014-11-19 08:58:07.696,23,23,52.3372,4.848007,10.9122,13.18,84.85212,6,5,1416383887,-0.2939148,-0.05018616,-0.9384308,-125.2115,46.25813,-12.63486,31.56557,30.98313,26,0.01687778,0.004649879,-0.00587014,0.6293076,-0.3252118,0.02464529,0.002849717,0.01142161,-0.0006889053,-0.03454564,-0.01986709,0.05790627,0.0.0.0,10.167.22.1,5,0
2014-11-19 08:58:08.696,24,24,52.33721,4.848195,10.55209,13.36,84.85212,6,5,1416383888,-0.2836914,-0.02355957,-0.9649506,-114.0136,44.46043,-3.556839,31.36928,30.78684,26,-0.002548113,-0.01185586,-0.001132642,0.6337428,-0.3201308,0.02200018,-0.006024742,-0.01135382,0.01926167,-0.05939365,0.01761914,0.0356345,0.0.0.0,10.167.22.1,5,0
2014-11-19 08:58:09.695,25,25,52.33722,4.848372,10.76321,13.62,84.50031,6,5,1416383889,-0.2792969,0.03778076,-0.951004,-15.97138,41.74652,-0.26651,31.10083,30.51839,26,-0.003897536,-0.01907436,0.006012619,0.6367751,-0.3130113,0.01050963,-0.01546141,-0.01808664,-0.004723802,0.004548031,0.04661173,-0.04038691,0.0.0.0,10.167.22.1,5,0
2014-11-19 08:58:10.695,26,26,52.33723,4.84858,10.62704,13.69,84.50031,6,5,1416383890,-0.3552856,-0.02619934,-0.9235687,-10.32073,49.93997,2.365799,30.85305,30.27062,26,0.02386325,-0.01088168,-0.006935404,0.6403264,-0.3190938,0.01498911,0.01861838,0.01113332,-0.001461109,-0.02655425,-0.05514085,0.02222837,0.0.0.0,10.167.22.1,5,0
2014-11-19 08:58:11.695,27,27,52.33725,4.848774,9.572842,14.09,84.50031,6,5,1416383891,-0.3094635,0.04600525,-0.9823761,-9.597191,50.35481,2.534531,30.67901,30.09657,26,0.02256257,-0.01453074,0.0001906823,0.6438953,-0.3172943,0.001046606,-0.01279353,-0.005359943,0.008903176,-0.003737931,0.05428452,0.02681898,0.0.0.0,10.167.22.1,5,0
2014-11-19 08:58:12.695,28,28,52.33726,4.848987,9.939907,14.06,84.50031,6,5,1416383892,-0.2730865,0.03968811,-0.9279938,-9.424911,51.46104,2.129562,30.35003,29.7676,26,0.01558295,-0.002475674,-0.005837116,0.6477057,-0.3150112,-0.02785525,-0.00805599,0.005394772,0.000413873,0.01373218,0.01031058,0.001602048,0.0.0.0,10.167.22.1,5,0
2014-11-19 08:58:13.695,29,29,52.33726,4.849189,9.758572,13.54,84.75165,6,5,1416383893,-0.3308411,0.05647278,-0.9616089,-10.21736,51.18451,1.690903,30.01539,29.43296,26,0.01890365,-0.01344071,0.01083454,0.6515011,-0.3139597,-0.03893993,-0.01195954,-0.01985743,0.01906095,0.01716552,0.001154748,0.03309978,0.0.0.0,10.167.22.1,5,0
2014-11-19 08:58:14.695,30,30,52.33727,4.849393,10.06149,13.2,84.75165,6,5,1416383894,-0.3052826,0.02851868,-0.9211731,-9.47657,51.582,1.741547,29.66833,29.0859,26,0.02275325,-0.003745203,-0.005794772,0.6569804,-0.3149103,-0.04381539,-0.004047802,0.007570497,0.0005280775,-0.03947358,0.01143545,-0.00383898,0.0.0.0,10.167.22.1,5,0
2014-11-19 08:58:15.695,31,31,52.33728,4.849581,9.364101,12.83,84.75165,6,5,1416383895,-0.3439178,-0.009002686,-0.9279175,-10.38963,52.08328,2.66954,29.37723,28.7948,26,0.01065185,-0.01079725,-0.002259426,0.6590736,-0.3181282,-0.03394896,0.009071871,-0.009263868,0.003640231,-0.01345605,-0.01721881,0.004313711,0.0.0.0,10.167.22.1,5,0
2014-11-19 08:58:16.695,32,32,52.33729,4.849771,9.397732,12.89,84.47857,6,5,1416383896,-0.3235016,-0.0219574,-0.9662781,-8.253403,49.00639,2.500748,29.25107,28.66863,26,0.01071842,-0.007196927,-0.004649613,0.6570123,-0.3164409,-0.01079025,-0.007203047,0.01124218,-0.001569477,-0.02142783,-0.03895777,0.04421151,0.0.0.0,10.167.22.1,5,0
2014-11-19 08:58:17.695,33,33,52.3373,4.849959,8.607327,12.89,84.47857,6,5,1416383897,-0.3000946,-0.008636475,-0.9099731,-9.045876,52.01413,1.184616,29.29777,28.71533,26,0.0153486,-0.01449745,0.003710849,0.6538374,-0.3183419,-0.003845522,-0.004639923,0.01001674,-0.002913733,-0.01939235,0.004958809,-0.03322251,0.0.0.0,10.167.22.1,5,0
2014-11-19 08:58:18.695,34,34,52.3373,4.850147,8.817104,13,84.47857,6,5,1416383898,-0.3147125,0.0244751,-0.8913116,-11.02702,51.44371,1.640228,29.33651,28.75407,26,0.01186172,-0.007303453,0.002469017,0.6529216,-0.3201856,-0.0206141,-0.005025118,-0.00204323,0.008906416,0.03881226,0.01379593,0.01998974,0.0.0.0,10.167.22.1,5,0
2014-11-19 08:58:19.696,35,35,52.33731,4.85032,8.221645,12.76,84.47857,8,5,1416383899,-0.3094482,0.03311157,-0.9500275,-10.63081,50.2164,1.555832,29.32044,28.73801,26,0.01322126,-0.005878395,-0.01649828,0.6509277,-0.3219966,-0.02794572,-0.005021145,-0.001897001,-0.003064669,-0.02370446,-0.0128664,0.04334309,0.0.0.0,10.167.22.1,5,0
2014-11-19 08:58:20.695,36,36,52.33733,4.8505,8.98904,12.57,84.78671,8,5,1416383900,-0.2900238,0.0004882812,-0.9243622,-10.16565,51.27083,0.8977814,29.38629,28.80386,26,0.0107147,-0.004879444,7.909589e-05,0.6494626,-0.3198513,-0.01263024,-0.004518692,0.0183481,-0.004555522,0.0197531,-0.008708397,-0.01018989,0.0.0.0,10.167.22.1,5,0
2014-11-19 08:58:21.695,37,37,52.33735,4.850681,8.886684,12.71,84.78671,8,5,1416383901,-0.2924652,0.005157471,-0.9126892,-9.545464,51.78944,1.100281,29.47169,28.88926,26,-0.02365313,0.02053856,-0.003785684,0.6488913,-0.3218143,-0.01750511,-0.06403407,0.029753,-0.009933965,0.006242253,0.005612851,-0.001860635,0.0.0.0,10.167.22.1,5,0
2014-11-19 08:58:22.696,38,38,52.33736,4.850864,8.338039,12.58,84.78671,8,5,1416383902,-0.307251,0.01741028,-0.9350586,-10.14842,51.35724,1.657104,29.5124,28.92997,26,0.02393303,-0.003789678,-0.003417901,0.6483163,-0.3214218,-0.03004978,-0.02022298,-0.0005892079,-0.001468876,0.02034784,0.006621608,0.03982005,0.0.0.0,10.167.22.1,5,0
2014-11-19 08:58:23.695,39,39,52.33737,4.851049,8.241543,12.58,84.78671,8,5,1416383903,-0.3072357,-0.009368896,-0.9277496,-10.23459,51.61656,1.336517,29.51046,28.92803,26,0.01544261,-0.01085052,-0.002235458,0.6468863,-0.3173744,-0.01957895,0.01222218,0.004889378,0.005686485,0.003679008,-0.007736876,0.0173656,0.0.0.0,10.167.22.1,5,0
2014-11-19 08:58:24.695,40,40,52.33738,4.851219,9.468594,12.22,84.78671,8,5,1416383904,-0.3275452,-0.03178406,-0.9089966,-9.717758,51.75485,1.167786,29.60454,29.0221,26,0.01940779,0.006014749,-0.02127493,0.6459135,-0.312463,0.003796273,-0.0006651559,-0.002133727,-0.001540994,0.02613584,-0.04376538,0.06081013,0.0.0.0,10.167.22.1,5,0
2014-11-19 08:58:25.696,41,41,52.33739,4.851399,9.54092,12.75,84.78671,8,5,1416383905,-0.3389587,-0.04708862,-0.9243164,-10.16567,51.09799,1.235275,29.78469,29.20226,26,0.01173868,-0.02029755,-0.004572115,0.6452641,-0.3220636,0.02677552,-0.003589105,0.008457141,-0.006435352,-0.02254749,-0.0203163,0.02392785,0.0.0.0,10.167.22.1,5,0
2014-11-19 08:58:26.696,42,42,52.3374,4.851596,10.25003,13.22,84.99417,8,5,1416383906,-0.3482208,-0.0201416,-0.9069214,-10.114,50.38924,1.927032,29.99178,29.40934,26,0.003450125,-0.007256848,0.005983324,0.6435092,-0.3162632,0.0391406,-0.007032699,-0.002330218,0.0007026654,0.003116086,0.01348059,0.01748641,0.0.0.0,10.167.22.1,5,0
2014-11-19 08:58:27.695,43,43,52.3374,4.851791,10.69528,13.76,84.99417,8,5,1416383907,-0.3194122,-0.02165222,-0.9390106,-8.563507,51.21899,1.319595,30.08686,29.50443,26,0.0227394,-0.006093579,-0.008152735,0.6442694,-0.3178114,0.01735877,-0.009192865,0.01801841,-0.004089511,-0.02830275,0.002739977,0.01349918,0.0.0.0,10.167.22.1,5,0
2014-11-19 08:58:28.696,44,44,52.33741,4.851983,11.31491,13.78,84.67236,8,5,1416383908,-0.3562622,-0.04867554,-0.8737946,-9.924484,51.78937,0.7964935,30.12773,29.5453,26,0.008450476,0.003506584,-0.002349174,0.6433794,-0.3176775,0.02594697,-0.02027045,-0.003367366,0.003083042,0.07676709,-0.02296036,0.08271558,0.0.0.0,10.167.22.1,5,0
2014-11-19 08:58:29.702,45,45,52.33742,4.852197,11.63516,13.78,84.67236,8,5,1416383909,-0.308548,0.00958252,-0.9552765,-10.23458,51.06329,0.6277771,30.18096,29.59853,26,0.01408839,-0.02040195,0.001366468,0.6440722,-0.3153584,0.02471592,-0.01549311,-0.004624198,0.006695137,0.02937707,0.01008022,0.02182131,0.0.0.0,10.167.22.1,5,0
2014-11-19 08:58:30.695,46,46,52.33743,4.852406,11.41433,14.5,84.67236,8,5,1416383910,-0.2936096,-0.0342865,-0.8671265,-10.95815,51.61642,0.9651947,30.13401,29.55158,26,0.01547989,-0.006138054,0.001294563,0.6457051,-0.3137106,0.01074014,-0.009259664,0.01208553,0.0007480269,0.002450594,0.03254474,0.02302437,0.0.0.0,10.167.22.1,5,0
2014-11-19 08:58:31.695,47,47,52.33744,4.852617,11.71811,14.5,85.04726,8,5,1416383911,-0.383255,-0.008514404,-0.9475098,-11.07874,51.94487,1.488266,30.05613,29.4737,26,0.01313924,-0.006018212,-0.00582966,0.6458406,-0.3201967,0.01305088,-0.009638439,-0.005794812,0.007918673,0.0430742,-0.01417117,0.03126128,0.0.0.0,10.167.22.1,5,0
2014-11-19 08:58:32.695,48,48,52.33745,4.852821,12.93435,14.81,85.04726,8,5,1416383912,-0.2948151,0.0289917,-0.9254456,-12.16409,51.16702,2.247559,30.02474,29.4423,26,0.0224848,-0.01698804,0.006130597,0.6444862,-0.3199476,-0.001116688,-0.001202064,0.002708343,-0.005146635,0.02510315,-0.00676244,0.05089011,0.0.0.0,10.167.22.1,5,0
2014-11-19 08:58:33.695,49,49,52.33747,4.853056,13.71322,14.63,85.04726,8,5,1416383913,-0.3789368,0.01832581,-0.9213715,-11.251,50.80405,1.555817,29.98074,29.39831,26,0.004686631,-0.008366587,-0.001116397,0.6411453,-0.3276576,-0.01929092,-0.009531618,0.006288493,-0.00166165,0.0693401,-0.01462053,0.05541779,0.0.0.0,10.167.22.1,5,0
2014-11-19 08:58:34.696,50,50,52.33747,4.853248,13.56094,14.6,85.04726,8,5,1416383914,-0.3118134,0.002960205,-0.9790497,-11.35439,51.32259,2.09581,30.02055,29.43812,26,0.01903814,-0.01204921,-0.004581969,0.6384324,-0.3319828,-0.0107183,-0.001092647,-0.008205453,0.006675545,-0.01510394,0.0003750446,-0.03546077,0.0.0.0,10.167.22.1,5,0
2014-11-19 08:58:35.695,51,51,52.33748,4.853458,13.22329,14.59,85.04726,8,5,1416383915,-0.2706604,-0.01608276,-0.9101257,-66.65494,55.60948,9.452789,30.16761,29.58518,26,0.02267069,-0.008535432,-0.003397927,0.6355613,-0.3338942,0.001248779,-0.009238164,-0.005577788,-0.006395716,0.04676433,0.001996459,0.01374227,0.0.0.0,10.167.22.1,5,0
2014-11-19 08:58:36.695,52,52,52.33749,4.853679,12.38717,14.9,84.2486,8,5,1416383916,-0.3030548,0.02856445,-1.060349,-32.35481,45.0134,4.205093,30.33436,29.75193,26,-0.0002308961,-0.003880226,0.02372743,0.6352074,-0.3400285,0.01641404,0.0009519556,0.03332037,0.008816575,-0.1571316,0.01032505,0.1084507,0.0.0.0,10.167.22.1,5,0
2014-11-19 08:58:37.695,53,53,52.3375,4.853893,11.32705,15.31,84.5164,8,5,1416383917,-0.3287811,-0.003997803,-0.9262238,-10.872,49.28302,1.049713,30.44508,29.86264,26,0.01929167,0.004654407,-0.008228902,0.6331639,-0.3255084,0.008292844,-0.0137527,0.005085156,0.0006274942,0.06562914,0.001838281,0.04544763,0.0.0.0,10.167.22.1,5,0
2014-11-19 08:58:38.695,54,54,52.33752,4.854116,12.02621,15.14,85.23636,12,5,1416383918,-0.3382416,0.006942749,-0.9284668,-12.57751,50.82144,1.674088,30.48183,29.89939,26,-5.672533e-05,-0.009394301,-0.009431851,0.6351236,-0.3216386,-0.00784849,0.006462174,-0.002301328,0.003160356,0.03943948,0.003275248,0.009938248,0.0.0.0,10.167.22.1,5,0
2014-11-19 08:58:39.695,55,55,52.33754,4.85434,12.02871,15.14,85.23636,12,10,1416383919,-0.2945709,0.0161438,-0.9099426,-11.21654,50.00903,1.049759,30.43571,29.85327,26,0.02611656,-0.01812468,-0.0009574064,0.6363816,-0.3217963,-0.01428096,-0.003312393,-0.0118927,0.01383018,-0.02574105,0.02498038,-0.02077301,0.0.0.0,10.167.22.1,5,0
2014-11-19 08:58:40.695,56,56,52.33757,4.854596,12.23373,15.4,85.80781,12,10,1416383920,-0.3350067,-0.0008392334,-0.9190674,-11.76781,50.66586,0.4760437,30.39454,29.81211,26,0.008166583,-0.01673504,-0.001053014,0.6364526,-0.3169218,-0.0102661,-0.004342545,-0.007106547,0.004241824,-0.0612218,-0.002010915,-0.003815084,0.0.0.0,10.167.22.1,5,0
2014-11-19 08:58:41.695,57,57,52.33757,4.854805,12.47866,15.3,85.23636,12,5,1416383921,-0.3577576,-0.02220154,-0.9235077,-12.16405,50.7523,0.8979034,30.36899,29.78656,26,0.007234477,-0.006970824,-0.01889247,0.6367171,-0.314907,-0.005926869,-0.001797315,-6.533427e-05,-0.004149006,0.04431124,-0.0234897,0.02405067,0.0.0.0,10.167.22.1,5,0
2014-11-19 08:58:42.695,58,58,52.33759,4.855025,13.67385,15.3,84.375,12,10,1416383922,-0.3580627,-0.003570557,-0.9154968,-12.3191,50.87332,1.150986,30.39342,29.81098,26,0.02637914,-0.001405883,-0.005789978,0.6368717,-0.316321,0.0001922702,0.0008191307,0.002120996,-0.004269634,-0.05046958,0.01746522,0.01497673,0.0.0.0,10.167.22.1,5,0
2014-11-19 08:58:43.695,59,59,52.3376,4.855248,13.6827,15.3,84.375,12,10,1416383923,-0.3028717,0.009735107,-0.9820862,-11.78503,51.72038,1.066666,30.40369,29.82125,26,0.02275937,-0.007221428,-0.01288784,0.6350746,-0.3147852,0.002951127,0.003603733,0.0007108646,-0.0102969,-0.04089881,-0.01098015,0.006065082,0.0.0.0,10.167.22.1,5,0
2014-11-19 08:58:44.695,60,60,52.33758,4.855483,16.29934,15.48,85.07812,12,5,1416383924,-0.2222443,-0.05982971,-0.9104767,-12.02624,51.61664,1.134155,30.50338,29.92095,26,0.01928848,0.00116247,-0.01413659,0.6299265,-0.3192361,0.007264107,0.002577389,0.00630625,-0.003287049,-0.0301153,-0.002135372,-0.0007601828,0.0.0.0,10.167.22.1,5,0
2014-11-19 08:58:45.695,61,61,52.33759,4.855704,16.57138,15.65,85.07812,12,5,1416383925,-0.248703,0.005218506,-0.9685059,-13.26662,53.27605,3.327698,30.66364,30.0812,26,0.02405953,0.002237055,-0.009377789,0.6280743,-0.3199924,-0.002208173,-0.005892879,0.000252416,0.00160016,0.0339189,-0.04354423,0.08081204,0.0.0.0,10.167.22.1,5,0
2014-11-19 08:58:46.696,62,62,52.33761,4.855932,17.19748,15.83,84.72656,8,5,1416383926,-0.2898712,-0.006103516,-0.9073639,-13.16325,53.62178,2.686478,30.8231,30.24066,26,0.0008032094,-0.02509204,0.007254185,0.6287221,-0.3177009,0.03498423,-0.009569695,-0.01052232,0.008776658,0.04615523,0.01391996,0.02945298,0.0.0.0,10.167.22.1,5,0
2014-11-19 08:58:47.695,63,63,52.33761,4.856166,16.98947,16.2,85.92511,8,5,1416383927,-0.3053589,0.002578735,-0.9703064,-13.92127,54.2095,3.091446,30.8748,30.29236,26,0.03078801,-0.02303022,0.006204366,0.6313989,-0.3119653,0.01350015,-0.002586422,-0.01409926,0.004242286,0.03201461,-0.005054945,0.04505978,0.0.0.0,10.167.22.1,5,0
2014-11-19 08:58:48.695,64,64,52.33762,4.856401,15.98556,16.38,85.92511,8,5,1416383928,-0.3255615,-0.05110168,-0.9333801,-13.83513,52.77484,3.378311,30.87116,30.28872,26,0.02753309,-0.002655704,-0.002221609,0.6298264,-0.3174129,0.0213077,0.005908022,0.003642243,0.005449022,-0.0356937,-0.01618475,-0.004454258,0.0.0.0,10.167.22.1,5,0
2014-11-19 08:58:49.695,65,65,52.33764,4.856653,13.94925,16.9,85.1656,6,5,1416383929,-0.303894,-0.03579712,-0.91716,-13.90405,53.70825,4.694427,30.98164,30.39921,26,0.0164072,-0.02869503,-0.0033175,0.6265828,-0.3190998,0.02797114,-0.01349037,-0.004224229,-0.004021285,0.04256259,0.004285849,0.002415225,0.0.0.0,10.167.22.1,5,0
2014-11-19 08:58:50.694,66,66,52.33765,4.856903,14.27597,16.96,85.1656,6,5,1416383930,-0.3083038,0.007751465,-0.9609985,-24.49904,58.11609,3.428879,31.12622,30.54378,26,-0.03045804,-0.02378869,0.02487419,0.6252707,-0.3247674,0.03322705,-0.03654898,-0.01614047,0.01849843,0.01095931,0.02611034,0.0557529,0.0.0.0,10.167.22.1,5,0
2014-11-19 08:58:51.695,67,67,52.33766,4.857152,13.52743,17.29,85.1656,6,5,1416383931,-0.3655853,0.04008484,-0.9908447,-106.8914,3.579239,4.056793,83.79417,83.21173,25,0.02965909,-0.02057532,0.001443966,0.6281949,-0.3339101,-0.006992744,0.01143599,-0.008002968,-0.007279646,0.001086718,0.03020824,0.0118684,0.0.0.0,10.167.22.1,5,0
2014-11-19 08:58:52.695,68,68,52.33768,4.857398,12.38839,17.3,85.07758,6,5,1416383932,-0.2799988,-0.01329041,-0.9169617,-100.6895,6.725342,2.774246,84.98067,84.39824,25,0.02020141,-0.01328332,-0.002198972,0.6302322,-0.3283078,-0.006329054,-0.01036405,-0.01729534,-0.0001929972,-0.06490916,0.002627897,0.03554438,0.0.0.0,10.167.22.1,5,0
2014-11-19 08:58:53.696,69,69,52.33769,4.857661,11.3793,17.16,84.5853,6,5,1416383933,-0.3391266,0.0027771,-0.9289856,-100.5172,6.863663,-4.077438,85.55088,84.96844,25,0.0143571,-0.007159376,-0.01055863,0.6279832,-0.3297719,-0.02248438,0.01134943,0.003913154,-0.0001605124,0.009170212,0.006249813,0.02545166,0.0.0.0,10.167.22.1,5,0
2014-11-19 08:58:54.695,70,70,52.3377,4.85791,11.00216,17.01,85.03026,6,5,1416383934,-0.4102478,0.05934143,-1.006195,-114.127,8.07373,-9.173981,86.49545,85.91301,25,0.009503757,-0.01302366,-0.01292112,0.6218273,-0.3392738,-0.05602787,-0.02252862,-0.005234788,-0.002579077,-0.001749942,-0.1235645,0.05369949,0.0.0.0,10.167.22.1,5,0
2014-11-19 08:58:55.695,71,71,52.33772,4.858153,10.28921,16.57,84.07246,6,5,1416383935,-0.2826691,0.05371094,-0.95224,-6.678413,7.537949,13.2205,86.78745,86.20502,26,0.01440983,-0.005907157,-0.01530705,0.6186526,-0.3359317,-0.05204284,0.00515637,0.005276115,-0.007248825,0.0531254,0.008893738,0.02883912,0.0.0.0,10.167.22.1,5,0
2014-11-19 08:58:56.695,72,72,52.33773,4.858399,9.816372,16.03,85.22966,6,5,1416383936,-0.2940674,0.04043579,-0.9462128,-5.885933,7.365067,11.80293,87.46612,86.88368,26,0.02140835,-0.01328118,-0.00337822,0.6138204,-0.3204102,-0.04834158,-0.0007106276,0.01381915,-0.01208202,-0.006167084,-0.02152832,0.02163646,0.0.0.0,10.167.22.1,5,0
2014-11-19 08:58:57.695,73,73,52.33773,4.858633,9.620388,15.59,85.78125,6,5,1416383937,-0.3155365,0.04206848,-0.9302521,-4.817841,7.399612,11.97171,87.93404,87.35161,26,0.009503757,-0.002564358,0.005987052,0.6149278,-0.3157468,-0.04841849,-0.006971634,-0.007674376,0.003360606,-0.02949816,-0.004347449,-0.0003936162,0.0.0.0,10.167.22.1,5,0
2014-11-19 08:58:58.695,74,74,52.33776,4.85886,9.584805,15.18,85.42969,6,5,1416383938,-0.2609863,0.04017639,-0.9593201,-5.799835,7.036652,12.19109,88.20443,87.62199,26,0.02139024,-0.01331208,-0.001007474,0.6177903,-0.3093234,-0.04724958,0.002405363,-0.005508351,0.0175695,0.03796121,-0.0258697,0.01756248,0.0.0.0,10.167.22.1,5,0
2014-11-19 08:58:59.700,75,75,52.33778,4.859076,9.348171,14.75,85.42969,4,5,1416383939,-0.3219452,0.0680542,-0.9230804,-5.524208,7.036652,12.08981,88.24238,87.65994,26,0.01283324,-0.02397351,0.002565689,0.6258987,-0.3108116,-0.04932578,0.008656888,0.01370036,0.0007622886,0.02947374,-0.01083838,-0.02473455,0.0.0.0,10.167.22.1,5,0
2014-11-19 08:59:00.695,76,76,52.33779,4.859288,9.591274,14.34,84.72656,4,5,1416383940,-0.3187256,0.04638672,-0.9553375,-5.69648,7.278671,11.41472,88.1302,87.54776,26,0.02869876,-0.005048554,-0.002202701,0.6290204,-0.3062315,-0.04674723,0.0158251,0.005407206,-0.00433427,-0.01247565,0.00609572,-0.01114247,0.0.0.0,10.167.22.1,5,0
2014-11-19 08:59:01.695,77,77,52.33781,4.859499,9.018398,13.92,84.72656,4,5,1416383941,-0.2820892,0.06117249,-0.9654388,-5.179649,7.416992,11.11096,88.09301,87.51057,26,0.004731905,-0.008289088,-0.007043528,0.6232405,-0.3247987,-0.04941751,-0.008381836,-0.01469334,0.005823907,-0.08974934,-0.004048274,0.01914408,0.0.0.0,10.167.22.1,5,0
2014-11-19 08:59:02.695,78,78,52.33782,4.859689,8.814419,13.53,84.72656,4,5,1416383942,-0.3486481,0.0428009,-0.9164124,-4.335487,12.30898,12.81538,88.22186,87.63943,26,0.02023976,-0.01438,-0.009304819,0.6153331,-0.3242424,-0.0452124,-0.009008271,0.01180118,-0.008792733,0.08138776,-0.005218974,0.03733202,0.0.0.0,10.167.22.1,5,0
2014-11-19 08:59:03.696,79,79,52.33783,4.859875,8.889126,13.13,85.07812,4,5,1416383943,-0.2936249,0.1766663,-0.9188385,-4.490524,12.67201,13.27104,88.33009,87.74766,26,0.0203588,0.00093184,0.002465022,0.6124446,-0.3277693,-0.0917223,0.01258354,0.009377201,-0.02051608,0.04196841,0.08020496,-0.04206495,0.0.0.0,10.167.22.1,5,0
2014-11-19 08:59:04.696,80,80,52.33785,4.860053,9.103237,12.41,85.07812,4,5,1416383944,-0.3253479,0.1664429,-0.9158173,-7.781006,15.21309,15.04294,88.24564,87.66321,26,0.00468743,-0.003716175,0.007155381,0.6137288,-0.3172705,-0.1117909,-0.004406673,0.008187805,0.001933609,-0.0128947,0.0497882,-0.01368003,0.0.0.0,10.167.22.1,5,0
2014-11-19 08:59:05.695,81,81,52.33785,4.860205,8.550076,11.08,85.02496,4,5,1416383945,-0.3484039,0.1071625,-0.9529266,-8.452888,13.05229,14.68848,88.13986,87.55743,26,0.01545273,-0.006184659,0.004850948,0.6143063,-0.3130087,-0.1200865,0.007492434,-0.001358238,0.0008305167,0.02082335,-0.03280774,0.02732331,0.0.0.0,10.167.22.1,5,0
2014-11-19 08:59:06.695,82,82,52.33786,4.860353,9.606777,9.38,85.02496,4,5,1416383946,-0.2865753,0.2086792,-0.9367676,-8.814674,12.30899,14.87411,88.10143,87.519,26,0.01460771,0.006052566,-0.02011326,0.6128647,-0.3158892,-0.1290395,-0.01641327,-0.01753945,-0.01348302,-0.02607326,0.0895037,0.00345462,0.0.0.0,10.167.22.1,5,0
2014-11-19 08:59:07.696,83,83,52.33786,4.860488,9.777126,9.38,85.02496,4,5,1416383947,-0.3231354,0.2144165,-0.9349518,-8.487343,13.05229,14.21597,87.91785,87.33542,26,0.02745426,-0.009763149,-0.004553473,0.6102113,-0.3179438,-0.1817022,-0.007863337,0.001323374,-0.004063,0.008593773,0.02266517,0.005745535,0.0.0.0,10.167.22.1,5,0
2014-11-19 08:59:08.696,84,84,52.33787,4.860565,11.21798,5.82,85.02496,6,5,1416383948,-0.2939758,0.02423096,-0.894928,-8.2117,12.49911,13.43967,87.77249,87.19006,26,0.01782507,-0.008575113,0.003690076,0.6082045,-0.3206842,-0.1689678,0.002421235,0.007303162,-0.00895781,0.01951292,-0.1156747,-0.01815419,0.0.0.0,10.167.22.1,5,0
2014-11-19 08:59:09.695,85,85,52.33787,4.860646,10.91244,4.42,85.02496,6,5,1416383949,-0.3066406,0.105423,-0.9146271,-8.004959,13.50174,13.10214,87.94315,87.36072,26,-0.008520784,-0.01059938,-0.001168861,0.6091127,-0.3199793,-0.1118285,-0.003406719,-0.01181493,0.005189836,0.004064741,0.00284538,-0.01838776,0.0.0.0,10.167.22.1,5,0
2014-11-19 08:59:10.695,86,86,52.33787,4.860697,10.88852,3.6,85.02496,6,5,1416383950,-0.3062439,0.1458435,-0.9675293,-7.023018,12.4128,11.80264,88.05589,87.47346,26,0.01778779,-0.01328758,0.000160056,0.6090797,-0.3239287,-0.1406657,-0.002090884,-0.009467078,0.009915799,0.01886962,-0.002140703,0.01582306,0.0.0.0,10.167.22.1,5,0
2014-11-19 08:59:11.696,87,87,52.33788,4.860754,11.83664,2.28,85.02496,6,5,1416383951,-0.3192444,0.03721619,-0.9120483,-7.918846,12.3091,12.34268,88.10477,87.52234,26,0.01796648,-0.006009423,-0.01054745,0.6087297,-0.3234938,-0.1002184,-0.003970786,-0.001000462,0.003815078,0.00238224,-0.04466131,-0.01968527,0.0.0.0,10.167.22.1,5,0
2014-11-19 08:59:12.695,88,88,52.33788,4.86078,11.14193,1.35,85.02496,6,5,1416383952,-0.3287048,0.006942749,-0.9159088,-7.867195,10.42488,11.38081,88.2811,87.69866,26,0.02511654,-0.006151636,-0.005770271,0.6107497,-0.32163,-0.03981639,0.004771956,-0.005947184,0.01323843,0.01254864,-0.02831601,0.02304273,0.0.0.0,10.167.22.1,5,0
2014-11-19 08:59:13.701,89,89,52.33788,4.860803,12.68808,1.1,85.02496,6,5,1416383953,-0.3057404,0.001022339,-0.9122314,-6.230583,11.96333,10.55389,88.49372,87.91129,26,0.02754028,-0.00148125,-0.001042361,0.6120644,-0.3217283,-0.01927034,0.0002989956,-0.003270366,-0.005801662,0.002518764,-0.006985819,-0.01263692,0.0.0.0,10.167.22.1,5,0
2014-11-19 08:59:14.696,90,90,52.33789,4.860809,12.28634,1.15,85.02496,6,5,1416383954,-0.3114319,0.01350403,-0.9141998,-5.19693,8.886398,9.541321,88.68159,88.09916,26,0.01433686,-0.006031527,-0.005823801,0.6112165,-0.3212275,-0.01499786,-0.004361229,0.006263732,-0.00351155,0.01071856,0.00706691,-0.001194045,0.0.0.0,10.167.22.1,5,0
2014-11-19 08:59:15.696,91,91,52.33789,4.860827,12.2427,1.15,85.02496,6,5,1416383955,-0.3096771,0.01980591,-0.9342957,-6.609573,10.09644,10.52011,88.83514,88.25271,26,0.01173762,-0.01448866,0.006064018,0.6106446,-0.3210092,-0.01396657,-0.00211742,0.0001671011,0.004830606,-0.008313202,-0.003574881,-0.01163954,0.0.0.0,10.167.22.1,5,0
2014-11-19 08:59:16.695,92,92,52.33789,4.86084,12.00821,0.75,85.02496,6,5,1416383956,-0.3094482,0.006347656,-0.9546051,-6.247787,8.730804,9.524414,88.94302,88.36058,26,0.01417334,-0.01677072,-0.003394199,0.6102106,-0.3209337,-0.01479908,-0.003152501,0.01330107,0.001199447,0.004322027,0.006167039,0.03210458,0.0.0.0,10.167.22.1,5,0
2014-11-19 08:59:17.695,93,93,52.33789,4.860851,11.77084,0.75,85.02496,6,5,1416383957,-0.2642059,-0.05632019,-0.9077301,-8.073914,10.25201,11.14452,89.05879,88.47636,26,0.02983912,-0.008646485,-0.0009914949,0.6089339,-0.3221604,-0.00258634,0.009805441,-0.007061481,-0.002195324,0.02463855,-0.05577848,-0.02358701,0.0.0.0,10.167.22.1,5,0
2014-11-19 08:59:18.695,94,94,52.3379,4.860871,11.42923,0.87,85.02496,6,5,1416383958,-0.3205261,-0.05282593,-0.9476471,-7.281456,9.180298,11.00945,89.26652,88.68408,26,0.007079748,-0.007234743,0.001259409,0.6081018,-0.3222938,0.03295505,0.006646802,0.008488154,-0.007086495,-0.0008269524,-0.03644788,-0.0114763,0.0.0.0,10.167.22.1,5,0
2014-11-19 08:59:19.695,95,95,52.3379,4.860877,11.04287,1.22,85.02496,6,5,1416383959,-0.3300934,-0.1052246,-0.9595795,-7.126396,9.854462,10.9926,89.54981,88.96738,26,0.008378571,-0.002426939,-0.003501791,0.6047686,-0.3110978,0.06410701,-0.006912818,-0.008173013,0.006000709,-0.02461827,-0.0411615,-0.009536903,0.0.0.0,10.167.22.1,5,0
2014-11-19 08:59:20.695,96,96,52.3379,4.860898,10.95126,1.22,85.02496,6,10,1416383960,-0.2765045,-0.06542969,-0.9694519,-8.211731,10.28667,12.2245,89.9095,89.32706,26,-0.001282845,-0.003618437,0.004754808,0.5991576,-0.3077807,0.08841742,-0.01383757,0.008713991,-0.01061279,0.06962907,0.0106808,0.07846642,0.0.0.0,10.167.22.1,5,0
2014-11-19 08:59:21.694,97,97,52.3379,4.860937,11.96182,2.19,85.02496,6,5,1416383961,-0.3257294,0.02690125,-0.9201965,-8.14283,10.66695,12.29202,90.21001,89.62757,26,0.008166583,-0.01673504,-0.001053014,0.5934838,-0.3195221,0.04821704,-0.005669368,0.007329774,-0.007864712,0.029858,0.07610667,-0.0127773,0.0.0.0,10.167.22.1,5,0
2014-11-19 08:59:22.695,98,98,52.3379,4.860988,12.54684,3.02,85.02496,8,5,1416383962,-0.3102417,0.01167297,-0.9365234,-8.349548,11.70413,12.73079,90.34635,89.76392,26,0.0120034,-0.004737497,-0.01176904,0.5873734,-0.3217112,0.01243843,0.001441312,0.0001908943,-0.0158349,0.009250648,0.0483573,-0.03791938,0.0.0.0,10.167.22.1,5,0
2014-11-19 08:59:23.695,99,99,52.33791,4.861045,12.52359,3.24,85.02496,8,5,1416383963,-0.3589325,-0.02215576,-0.9339447,-8.10836,10.14839,12.1907,90.5007,89.91827,26,0.01541651,-0.01670628,-0.009315471,0.5806293,-0.3177502,0.01234711,-0.003283476,-0.01057908,-0.008517418,-0.0609457,-0.006314703,-0.03925216,0.0.0.0,10.167.22.1,5,0
2014-11-19 08:59:24.695,100,100,52.33791,4.861094,12.47171,3.24,85.02496,8,10,1416383964,-0.2576447,-0.06529236,-0.9114227,-8.607971,9.854507,12.30882,90.82232,90.23988,26,0.01422181,-0.01320129,-0.003413906,0.573748,-0.3173568,0.03585668,0.005357607,-0.01563684,0.001428581,-0.03668539,-0.02036439,0.03287268,0.0.0.0,10.167.22.1,5,0
2014-11-19 08:59:25.695,101,101,52.33791,4.861169,12.23819,3.96,85.02496,6,5,1416383965,-0.3544312,-0.07150269,-0.8913727,-7.315903,9.629776,11.34691,91.21397,90.63154,26,0.0154751,-0.008470983,-0.002248507,0.5720003,-0.3196933,0.04252028,0.004623746,0.002130395,-0.0005052901,0.02602745,0.04580337,-0.007641913,0.0.0.0,10.167.22.1,5,0
2014-11-19 08:59:26.695,102,102,52.33792,4.861245,13.5751,4.65,85.02496,8,5,1416383966,-0.3511505,-0.06808472,-0.8951111,-12.40472,4.70546,1.231354,71.24363,70.66119,25,0.009420133,-0.01200473,0.0001121191,0.5738572,-0.3224381,0.04161388,0.001110164,0.002069626,0.003534225,-0.006606068,0.004919744,0.002301524,0.0.0.0,10.167.22.1,5,0
2014-11-19 08:59:27.696,103,103,52.33791,4.861316,12.29239,4.44,85.02496,6,5,1416383967,-0.3417664,-0.0786438,-0.9526367,-12.85262,3.910294,0.7588806,71.65359,71.07115,25,0.02377457,-0.01219568,0.002554238,0.5743086,-0.3194858,0.05342771,0.01096999,0.01036635,-0.002135853,-0.006712733,-0.02070964,0.0433182,0.0.0.0,10.167.22.1,5,0
2014-11-19 08:59:28.695,104,104,52.33791,4.861392,13.61239,4.85,85.02496,6,5,1416383968,-0.3384094,-0.1062012,-0.9574432,-12.9043,4.65361,1.923264,71.94353,71.36109,25,0.01065291,-0.006146842,0.006012353,0.5852891,-0.3181865,0.07417365,0.009360212,-0.01029694,0.02888495,0.07451185,-0.05226763,0.05260046,0.0.0.0,10.167.22.1,5,0
2014-11-19 08:59:29.695,105,105,52.3379,4.861522,11.80734,6.44,85.02496,6,5,1416383969,-0.2445221,-0.1097717,-0.9515228,-12.50805,5.777237,1.535126,70.10979,69.52736,25,0.04736432,-0.01773372,0.04181802,0.6167955,-0.2837645,0.1152549,0.03101324,-0.002338188,0.04669554,0.03545361,-0.003469381,0.01813802,0.0.0.0,10.167.22.1,5,0
2014-11-19 08:59:30.696,106,106,52.3379,4.86164,10.10135,7.57,85.02496,6,5,1416383970,-0.2688599,-0.02470398,-0.928009,-10.80254,7.419418,1.957001,66.79404,66.21161,25,0.04407239,-0.002071407,0.02986176,0.6595944,-0.2772644,0.06542997,0.02944197,-0.002377647,0.04797226,-0.04450236,0.0489038,-0.01476804,0.0.0.0,10.167.22.1,5,0
2014-11-19 08:59:31.695,107,107,52.33792,4.861752,9.264797,8.28,85.02496,8,5,1416383971,-0.2852783,-0.06533813,-0.9241486,-11.50886,5.777176,0.792572,64.98717,64.40474,25,0.02043071,-0.003594202,-0.01529001,0.6820997,-0.2906453,0.06575391,-0.01204397,0.001096357,-0.01271204,-0.01881254,-0.01435633,0.05163086,0.0.0.0,10.167.22.1,5,0
2014-11-19 08:59:32.696,108,108,52.33793,4.861872,9.379848,8.75,85.02496,8,5,1416383972,-0.3224792,-0.06420898,-0.936142,-12.00844,5.794373,0.7418976,63.83665,63.25422,25,-0.003484214,-0.01023346,-0.03315103,0.6599686,-0.3228408,0.06560546,-0.005271298,-0.002777777,-0.02423867,-0.05831378,0.0156164,-0.0009678011,0.0.0.0,10.167.22.1,5,0
2014-11-19 08:59:33.695,109,109,52.33796,4.862015,10.19259,9.46,85.02496,8,5,1416383973,-0.2886047,-0.09587097,-0.9858856,-10.16508,4.152222,-0.4225311,64.01028,63.42785,25,-0.008391354,-0.01154081,-0.02012897,0.6315362,-0.3423012,0.03763721,-0.02964661,-0.005053166,-0.02121513,0.03745964,0.002411039,0.01703173,0.0.0.0,10.167.22.1,5,0
2014-11-19 08:59:34.695,110,110,52.33797,4.86217,6.649746,9.67,85.02496,3,5,1416383974,-0.3293762,-0.09156799,-0.926712,-10.66467,4.722595,-0.6081696,64.73832,64.15588,25,0.01316986,-0.0129395,-0.02238653,0.6062042,-0.3295726,0.05107705,-0.0008059241,0.004276441,-0.02601061,0.06476319,-0.0331279,0.04921011,0.0.0.0,10.167.22.1,5,0
2014-11-19 08:59:35.695,111,111,52.33798,4.862315,6.425747,10.17,85.02496,3,5,1416383975,-0.299469,-0.08683777,-0.9494781,-10.45794,2.579147,0.0667572,67.14896,66.56653,25,0.007034474,-0.01777154,-0.01172164,0.5930386,-0.3317266,0.07105919,-0.01199134,0.000525695,0.0001183977,0.04900574,-0.02676366,0.04984586,0.0.0.0,10.167.22.1,5,0
2014-11-19 08:59:36.695,112,112,52.33798,4.862465,6.346767,11.04,86.33221,3,5,1416383976,-0.3003845,-0.04837036,-0.9528503,-9.165878,2.665604,-0.2539062,69.94249,69.36005,25,0.01652944,-0.009891513,0.0143595,0.5948056,-0.3114682,0.07604106,-0.003587296,0.00864684,0.01690148,0.009153712,0.009454736,0.04064093,0.0.0.0,10.167.22.1,5,0
2014-11-19 08:59:37.696,113,113,52.33799,4.862653,6.206264,11.89,86.33221,3,5,1416383977,-0.2738953,0.01643372,-0.9408264,-9.424294,3.996643,-0.8783264,69.57541,68.99297,25,0.01058314,-0.01323884,0.002495116,0.6005098,-0.3095298,0.03125935,-0.00629169,-0.003013275,0.002997187,-0.02387659,0.03024718,0.04122971,0.0.0.0,10.167.22.1,5,0
2014-11-19 08:59:38.695,114,114,52.33801,4.862836,6.365688,12.15,86.33221,3,5,1416383978,-0.2623901,0.001419067,-0.8997345,-9.07972,3.720032,-0.7432709,68.32893,67.74649,25,0.01534966,-0.0203066,-0.006925018,0.5952366,-0.3142368,-0.003396565,-0.002801228,-0.005235001,-0.01333058,0.02336816,0.007772875,-0.01045976,0.0.0.0,10.167.22.1,5,0
2014-11-19 08:59:39.695,115,115,52.33802,4.86301,6.39114,12.03,86.33221,3,5,1416383979,-0.2519989,-0.008956909,-0.9432831,-9.596519,3.51265,-0.6082611,68.057,67.47456,25,0.01791908,-0.004928446,-0.00225623,0.5892883,-0.3161696,-0.003279187,-0.01473485,0.0006157271,0.007088013,0.02319165,-0.02271888,0.05240275,0.0.0.0,10.167.22.1,5,0
2014-11-19 08:59:40.695,116,116,52.33804,4.863197,6.619228,11.88,85.79015,3,5,1416383980,-0.319046,-0.01672363,-0.9498596,-9.389778,3.547195,-0.5407562,68.50909,67.92666,25,0.005898103,-0.006031527,0.001246892,0.5879862,-0.3209067,0.003927459,-0.01930663,-0.002827035,0.007590566,0.04891464,-0.01737382,0.03851159,0.0.0.0,10.167.22.1,5,0
2014-11-19 08:59:41.695,117,117,52.33805,4.863379,6.304714,11.97,85.79015,3,5,1416383981,-0.2979584,-0.009094238,-0.9405823,-9.768791,3.374313,-1.587036,68.3901,67.80766,25,0.01887728,-0.01929647,0.003754525,0.5867572,-0.3255953,0.007157749,0.002575798,-0.01252146,0.004583638,0.05420918,-0.01129019,0.008578162,0.0.0.0,10.167.22.1,5,0
2014-11-19 08:59:42.696,118,118,52.33807,4.863552,6.569241,12.09,85.79015,3,5,1416383982,-0.3015289,-0.02389526,-0.954483,-9.131363,3.011322,-1.435135,68.60867,68.02624,25,0.02645904,-0.0001073254,-0.01409425,0.5868694,-0.3265904,0.0112205,0.006903406,0.009114192,-0.01186452,0.02233337,-0.02080793,0.05676227,0.0.0.0,10.167.22.1,5,0
2014-11-19 08:59:43.695,119,119,52.33809,4.863744,6.208889,12.29,85.79015,3,5,1416383983,-0.2759705,-0.1333466,-0.9246826,-9.096916,2.734756,-1.603928,69.25438,68.67194,25,0.01782906,-0.0108926,-0.0010381,0.5841228,-0.3212883,0.05799813,-0.0001487692,-0.005082281,-0.004632537,0.03365731,-0.06907906,-0.02430838,0.0.0.0,10.167.22.1,5,0
2014-11-19 08:59:44.696,120,120,52.33809,4.863929,6.395351,12.93,85.53284,4,5,1416383984,-0.3401642,-0.1125488,-0.9150848,-8.907425,2.475449,-1.182037,69.90927,69.32684,25,0.02038011,-0.006004896,-0.01290648,0.5832373,-0.3188344,0.07512922,-0.001166274,-0.001599155,0.002549903,0.02798398,-0.04405154,0.002251106,0.0.0.0,10.167.22.1,5,0
2014-11-19 08:59:45.695,121,121,52.3381,4.864128,6.890957,13.83,85.53284,4,5,1416383985,-0.3611145,0.02093506,-0.9121399,-9.028008,3.184219,-0.9627075,70.557,69.97456,25,-0.007301056,-0.002439722,0.01064545,0.5873548,-0.3162063,0.06774633,-0.01898547,0.006757485,0.01909641,0.01403097,0.09375653,-0.00996439,0.0.0.0,10.167.22.1,5,0
2014-11-19 08:59:46.696,122,122,52.33811,4.86435,6.041775,14.72,85.53284,3,5,1416383986,-0.3469391,-0.03115845,-0.9878998,-10.02721,4.186829,1.467422,69.31856,68.73612,25,0.02519643,-0.004853345,-0.01407454,0.5922192,-0.3021081,0.04293827,0.006391426,0.004520978,-0.006826164,0.01248447,0.02818509,0.005329832,0.0.0.0,10.167.22.1,5,0
2014-11-19 08:59:47.700,123,123,52.33812,4.864575,5.85989,14.9,85.53284,3,5,1416383987,-0.2895508,-0.01460266,-0.9612885,-10.61295,4.152237,0.9949036,69.02699,68.44456,25,0.0117488,-0.01563169,0.00251429,0.5939415,-0.3061509,0.04760309,0.003813823,-0.007446537,-0.0008697514,0.04522052,0.002281763,0.04929861,0.0.0.0,10.167.22.1,5,0
2014-11-19 08:59:48.695,124,124,52.33813,4.864808,5.799953,15.32,85.53284,3,5,1416383988,-0.2669373,0.01393127,-0.938736,-10.99193,4.221359,0.6911316,68.43707,67.85463,25,0.01848793,0.01928635,-0.03439206,0.598451,-0.3089384,0.02664979,0.007505257,0.01147402,0.002498441,0.06324738,0.02800467,0.06791919,0.0.0.0,10.167.22.1,5,0
2014-11-19 08:59:49.695,125,125,52.33814,4.865043,5.792385,15.63,85.53284,3,5,1416383989,-0.3510132,-0.02716064,-0.9608154,-10.57848,4.013901,0.4885864,68.4431,67.86066,25,0.003318831,-0.01561624,0.008399344,0.6021454,-0.3166796,0.02194285,-0.003205503,0.004281369,0.001037125,-0.02554549,-0.020753,0.01747449,0.0.0.0,10.167.22.1,5,0
2014-11-19 08:59:50.694,126,126,52.33815,4.865276,5.500332,15.75,85.53284,3,5,1416383990,-0.2764893,-0.08258057,-1.005676,-10.49232,4.549728,0.7079773,67.60512,67.02268,25,0.01183562,-0.01315895,-0.004611264,0.6035752,-0.3198902,0.04345233,0.005174916,-0.006716669,0.00440755,0.03767626,-0.0391419,-0.05730234,0.0.0.0,10.167.22.1,5,0
2014-11-19 08:59:51.696,127,127,52.33817,4.86551,5.775112,16.23,85.40344,3,5,1416383991,-0.2638855,0.01689148,-0.9315796,-10.97469,5.068359,0.4041901,67.22955,66.64712,25,0.01783199,-0.007401191,0.004869324,0.6055672,-0.318682,0.02338477,-0.01059,-0.01018114,0.004148094,0.05398275,0.06154487,0.03865345,0.0.0.0,10.167.22.1,5,0
2014-11-19 08:59:52.695,128,128,52.33818,4.865757,5.764248,16.66,85.40344,3,5,1416383992,-0.3539581,0.006362915,-0.9184723,-10.47508,5.016525,0.5222931,66.87466,66.29223,25,0.01659709,-0.01210034,0.001332912,0.6085916,-0.3154943,7.690117e-05,-0.01512701,0.001750508,0.008544451,0.07276812,-0.002822269,0.05647807,0.0.0.0,10.167.22.1,5,0
2014-11-19 08:59:53.695,129,129,52.33819,4.865989,6.163662,16.49,85.42969,3,5,1416383993,-0.3192749,-0.004150391,-0.9504089,-10.90579,4.653519,0.9779968,66.68299,66.10056,25,0.0179047,-0.007276821,-0.004613927,0.6069589,-0.3258724,0.002532784,0.01120213,-0.01027824,-0.003417784,0.0008594348,-0.001617609,-0.003040163,0.0.0.0,10.167.22.1,5,0
2014-11-19 08:59:54.695,130,130,52.3382,4.866235,6.35104,16.54,85.42969,3,5,1416383994,-0.2697144,-0.06987,-0.9299316,-10.90578,4.584335,2.260529,66.7887,66.20626,25,0.01942909,0.009537579,-0.01773798,0.6028277,-0.3182309,0.02755583,0.007905122,0.01137449,-0.01327708,0.01215458,-0.03571059,-0.0163752,0.0.0.0,10.167.22.1,5,0
2014-11-19 08:59:55.695,131,131,52.33821,4.86648,6.421291,16.84,85.78125,3,5,1416383995,-0.3422699,0.01776123,-0.9349823,-10.63014,4.549789,2.193054,67.32768,66.74525,25,0.009530921,-0.002517753,0.002430934,0.602784,-0.3161862,0.02299974,0.001657725,0.004240148,-0.009690936,-0.01022883,0.03969083,-0.03534258,0.0.0.0,10.167.22.1,5,0
2014-11-19 08:59:56.695,132,132,52.33823,4.866736,6.586758,17.24,85.78125,3,5,1416383996,-0.2832489,-0.004348755,-0.9211121,-10.81962,4.463394,2.311188,67.46454,66.8821,25,0.01667086,-0.007325557,0.0001219728,0.6052704,-0.3177531,0.01605252,0.002753007,0.01004406,-0.004824304,0.02914376,0.01170308,0.02870538,0.0.0.0,10.167.22.1,5,0
2014-11-19 08:59:57.695,133,133,52.33824,4.866996,7.07333,17.38,85.47861,3,5,1416383997,-0.2601929,-0.01222229,-0.8645935,-11.33644,4.601654,1.973572,67.26254,66.68011,25,0.01426842,-0.008473113,-0.001068993,0.6074031,-0.3168429,0.01252458,-0.00107929,-0.000698742,1.446712e-06,0.02609755,-0.003848427,0.006133776,0.0.0.0,10.167.22.1,5,0
2014-11-19 08:59:58.695,134,134,52.33825,4.867251,7.208096,17.5,85.47861,3,5,1416383998,-0.302063,-0.03007507,-0.8928986,-10.90573,5.20665,2.09166,67.1898,66.60737,25,0.01411688,-0.01570493,0.006082127,0.6082066,-0.3156504,0.02256163,0.00127678,-0.005506375,0.004690537,0.03264584,-0.01178781,0.04904659,0.0.0.0,10.167.22.1,5,0
2014-11-19 08:59:59.696,135,135,52.33826,4.867515,7.003689,17.7,85.47861,3,5,1416383999,-0.3030243,0.008010864,-0.9325562,-11.02632,5.880783,2.952408,66.20078,65.61834,25,8.468852e-05,0.00363122,-0.004761466,0.6097693,-0.3183134,-0.00514691,-0.007106708,0.00522773,0.01044593,0.003711128,0.02016744,0.04585188,0.0.0.0,10.167.22.1,5,0
2014-11-19 09:00:00.696,136,136,52.33828,4.867762,7.282925,17.97,85.55876,3,5,1416384000,-0.3061676,0.0241394,-0.9292908,-11.49146,5.828903,3.138031,65.17072,64.58828,25,0.009314672,-0.01450864,0.009608419,0.6086646,-0.3203571,-0.02265104,-0.002122604,0.001759684,-0.001514704,0.01117487,0.007929514,0.0322383,0.0.0.0,10.167.22.1,5,0
2014-11-19 09:00:01.695,137,137,52.33828,4.868034,6.841152,17.54,85.55876,3,5,1416384001,-0.2999573,0.01902771,-0.9964447,-15.97063,8.456436,-0.9459534,64.46715,63.88471,25,0.04908978,-0.006387059,-0.008021974,0.6069514,-0.3211897,-0.01455019,0.02812892,-0.003273468,-0.01098052,0.00291812,0.01451832,-0.03190706,0.0.0.0,10.167.22.1,5,0
2014-11-19 09:00:02.695,138,138,52.33829,4.868289,5.551662,17.3,85.55876,3,5,1416384002,-0.3197937,0.001358032,-0.9117126,-43.24195,4.255875,10.81662,65.54273,64.9603,26,-0.004968127,-0.008384163,0.008318916,0.6109832,-0.3182512,-0.01073785,-0.01129828,0.006402891,0.01003537,0.04038127,-0.001902802,0.05339755,0.0.0.0,10.167.22.1,5,0
2014-11-19 09:00:03.695,139,139,52.33831,4.868538,5.122341,17.18,85.55876,3,5,1416384003,-0.248764,-0.02893066,-0.91362,-36.12695,2.751999,11.40729,65.48828,64.90585,26,0.004678109,-0.003731888,0.008340755,0.6146264,-0.3158101,-0.003130778,0.007780416,-0.000953528,0.01010991,0.03450783,-0.01088224,0.01918972,0.0.0.0,10.167.22.1,5,0
2014-11-19 09:00:04.696,140,140,52.33832,4.868792,4.969753,17.19,84.87181,3,5,1416384004,-0.3636932,-0.01081848,-0.9544373,-46.56688,6.382065,10.29347,65.4255,64.84306,26,0.03085059,-0.01711267,0.008542888,0.6206234,-0.3077228,0.01690078,0.009082118,-0.008086967,0.01004323,0.02951526,-0.02399358,0.02306484,0.0.0.0,10.167.22.1,5,0
2014-11-19 09:00:05.696,141,141,52.33833,4.869044,5.110622,17.45,85.6013,3,5,1416384005,-0.3353577,0.01849365,-0.9124451,-45.29206,11.22215,9.314545,65.22495,64.64251,26,-0.01003399,-0.02855708,0.008405469,0.6287355,-0.3159982,-0.002761775,-0.01756276,-0.01503755,0.01585327,0.01311103,0.0142823,0.08083885,0.0.0.0,10.167.22.1,5,0
2014-11-19 09:00:06.696,142,142,52.33835,4.869309,6.373135,17.52,85.6013,3,5,1416384006,-0.2623444,0.01011658,-0.9378204,-6.68499,2.077805,3.087265,65.00497,64.42254,26,0.02389468,-0.002692989,0.003687413,0.625713,-0.3077338,-0.01029337,-0.006418926,0.008745028,0.006246767,0.03309295,0.003256619,0.008071457,0.0.0.0,10.167.22.1,5,0
2014-11-19 09:00:07.696,143,143,52.33836,4.869557,7.448757,17.47,85.6013,3,5,1416384007,-0.2590637,-0.02792358,-0.9370728,-12.37007,1.144363,4.403549,67.75188,67.16945,25,0.03330975,-0.006570817,0.01916517,0.641881,-0.2945672,-0.0007470493,0.01727517,0.002427154,0.02056697,-0.0157809,-0.008910501,-0.009945561,0.0.0.0,10.167.22.1,5,0
2014-11-19 09:00:08.695,144,144,52.33838,4.869823,9.003811,17.51,86.42365,4,5,1416384008,-0.2649231,-0.04934692,-0.9927826,-11.12968,6.641403,3.762238,68.25271,67.67027,25,0.01652838,-0.01454192,0.00608772,0.6577185,-0.2881789,0.02402312,0.01266653,-0.008001111,0.005066618,-0.02330939,-0.02953754,-0.007196593,0.0.0.0,10.167.22.1,5,0
2014-11-19 09:00:09.696,145,145,52.33839,4.870074,8.544888,17.73,86.42365,3,5,1416384009,-0.3428802,-0.09403992,-0.9305115,-13.54155,3.011322,-17.40025,59.95374,59.37131,26,0.01221139,0.01188835,-0.00948911,0.6612016,-0.3029729,0.06174078,-0.01535108,0.02201091,-0.0001210917,0.007125819,-0.007725926,0.03912197,0.0.0.0,10.167.22.1,5,0
2014-11-19 09:00:10.695,146,146,52.33841,4.870334,8.812588,18.21,85.658,3,5,1416384010,-0.4060669,-0.1546783,-0.8817291,-17.55559,9.459091,2.935333,55.21707,54.63464,26,-1.837581e-05,-0.01049072,-0.01653743,0.6487591,-0.3172132,0.07816445,-0.002012539,0.0126739,-0.03565324,-0.02841838,0.003454146,0.04867837,0.0.0.0,10.167.22.1,5,0
2014-11-19 09:00:11.696,147,147,52.33842,4.870606,8.605495,19.18,85.658,3,5,1416384011,-0.35672,-0.03967285,-0.9391327,-13.09364,2.734726,3.627213,52.75802,52.17558,26,-0.01221006,-0.02350719,-0.01178422,0.6327847,-0.3356696,0.09354679,-0.01672302,-0.004325553,-0.008450484,-0.06792808,0.07551186,0.04511843,0.0.0.0,10.167.22.1,5,0
2014-11-19 09:00:12.695,148,148,52.33843,4.870899,8.573391,20.28,85.658,3,5,1416384012,-0.3270569,0.0188446,-0.9487305,-12.24951,2.92482,3.239044,57.98255,57.40012,25,0.03003193,0.0009803096,-0.009341571,0.6251329,-0.3319188,0.03238738,-0.01114268,0.005091916,-0.001242296,0.03894362,0.03715772,0.04430353,0.0.0.0,10.167.22.1,5,0
2014-11-19 09:00:13.696,149,149,52.33844,4.871201,8.466885,20.6,85.658,3,5,1416384013,-0.3135834,-0.01411438,-0.9292297,-12.97308,1.853104,3.677826,65.76096,65.17852,25,0.02761112,-0.0001981392,-0.008161257,0.6237478,-0.3203104,0.008134088,0.01612868,0.01340815,-0.01183058,-0.02735811,0.007554164,-0.01807201,0.0.0.0,10.167.22.1,5,0
2014-11-19 09:00:14.695,150,150,52.33846,4.8715,8.351772,20.47,85.658,3,5,1416384014,-0.2559052,-0.05601501,-0.9176941,-13.67939,3.564423,3.66098,70.95482,70.37238,25,0.02264726,-0.01089925,-0.004570517,0.61744,-0.3157845,0.0170471,0.002838437,0.01224027,0.004626065,0.01290972,-0.02468651,0.01967457,0.0.0.0,10.167.22.1,5,0
2014-11-19 09:00:15.696,151,151,52.33847,4.871803,8.593349,20.62,85.658,3,5,1416384015,-0.2315826,-0.0982666,-0.9229736,-12.81801,5.846207,4.437317,71.66448,71.08205,25,0.01895105,-0.01452195,0.002543585,0.6218619,-0.2972937,0.05780123,0.02205744,-0.003434832,0.01188143,-0.0179498,-0.0569923,-0.007103414,0.0.0.0,10.167.22.1,5,0
2014-11-19 09:00:16.695,152,152,52.33848,4.872112,8.712612,21.23,85.81694,3,5,1416384016,-0.3217468,-0.01043701,-0.9338989,-10.69898,2.855698,1.213989,71.47489,70.89246,25,0.02348136,-0.02199345,0.02394342,0.6317253,-0.2904818,0.03549151,0.009913835,0.0003963069,0.005954115,0.03772891,0.004264581,0.02772355,0.0.0.0,10.167.22.1,5,0
2014-11-19 09:00:17.695,153,153,52.3385,4.872424,8.815762,21.91,85.81694,3,5,1416384017,-0.3042145,0.008270264,-0.9330139,-10.6301,2.821121,1.247772,73.21005,72.62762,25,0.01658084,-0.01328997,0.001339304,0.6433668,-0.2957641,0.02048592,0.00644127,0.008826613,-3.37494e-06,-0.04834248,0.02916674,-0.001201581,0.0.0.0,10.167.22.1,5,0
2014-11-19 09:00:18.695,154,154,52.33852,4.87276,8.81918,22.05,85.81694,3,5,1416384018,-0.3243103,0.03813171,-0.9549408,-11.57763,6.641342,3.323547,71.65161,71.06918,25,0.02269999,-0.009647568,-0.009318933,0.6408492,-0.3258089,-0.001781497,0.006339825,0.001649829,-0.01062449,0.01434967,0.01135632,0.03764635,0.0.0.0,10.167.22.1,5,0
2014-11-19 09:00:19.696,155,155,52.33854,4.873082,10.02536,21.95,86.20882,4,5,1416384019,-0.3609924,0.01374817,-0.9314117,-17.38336,1.541992,5.93927,71.42566,70.84322,26,0.01444126,-0.008178035,-0.02359188,0.6292591,-0.3377832,-0.01065986,0.001576716,0.001729596,-0.01778722,0.0320764,-0.008889634,0.05110403,0.0.0.0,10.167.22.1,5,0
2014-11-19 09:00:20.695,156,156,52.33856,4.873392,8.722012,21.79,86.20882,3,5,1416384020,-0.3047943,0.005096436,-0.8586121,-14.66138,0.02081299,3.509094,71.56635,70.98392,25,-0.004889031,-0.01173602,-0.008257131,0.6133456,-0.3489694,-0.002043361,-0.02377575,-0.001710796,-0.007268143,-0.007802643,0.02052439,0.01502576,0.0.0.0,10.167.22.1,5,0
2014-11-19 09:00:21.695,157,157,52.33858,4.873713,8.892361,21.81,87.24205,3,5,1416384021,-0.3104095,0.008377075,-0.9213867,-18.79599,-2.50296,4.420319,76.01574,75.4333,25,0.01177517,-0.0202355,-0.009313873,0.6022301,-0.3446573,-0.01556422,0.002658203,0.004052301,-0.01075263,-0.009746753,0.006302255,-0.003319664,0.0.0.0,10.167.22.1,5,0
2014-11-19 09:00:22.695,158,158,52.3386,4.874042,8.587551,21.77,87.24205,3,5,1416384022,-0.3477478,-0.03904724,-0.9920044,-12.07724,-0.5668945,2.226471,84.38396,83.80152,25,0.02523079,-0.003632285,-0.01645168,0.5981492,-0.3379223,0.004174592,0.006774172,0.02713162,-0.04173923,-0.01845083,-0.04053367,0.0042283,0.0.0.0,10.167.22.1,5,0
2014-11-19 09:00:23.695,159,159,52.33861,4.874361,8.488674,21.78,87.86308,3,5,1416384023,-0.3680725,-0.08460999,-0.929657,-12.1289,1.766724,2.27713,85.33762,84.75518,25,0.009357283,-0.01792254,-0.002226403,0.5904294,-0.3269517,0.03845332,0.0100154,0.004022537,-0.001424545,0.0002415538,-0.03257056,0.01602781,0.0.0.0,10.167.22.1,5,0
2014-11-19 09:00:24.700,160,160,52.33862,4.874685,8.707424,22.28,87.86308,3,5,1416384024,-0.3311615,-0.05613708,-0.9175262,-10.30279,1.801254,0.9945679,83.68118,83.09874,25,0.01791908,-0.004928446,-0.00225623,0.5829363,-0.3303008,0.06173837,-0.01386293,-0.004055503,-0.001597061,-0.004293235,-0.03966498,0.00475051,0.0.0.0,10.167.22.1,5,0
2014-11-19 09:00:25.695,161,161,52.33863,4.875031,9.819912,23.09,87.86308,4,5,1416384025,-0.3741302,-0.09260559,-0.9463196,-10.09608,0.4875336,0.7245483,84.15685,83.57442,25,0.008062454,-0.02504783,-0.002193379,0.5720059,-0.3301149,0.0765794,0.0136747,-0.01262317,-0.006227133,0.03973917,0.0171784,0.02199846,0.0.0.0,10.167.22.1,5,0
2014-11-19 09:00:26.695,162,162,52.33864,4.875372,10.69381,23.96,88.70259,4,5,1416384026,-0.3415985,-0.1395111,-0.9343262,-10.00995,0.7468262,0.4376373,84.76846,84.18602,25,0.002429336,-0.009265936,-0.02127413,0.5600449,-0.3371035,0.08884134,-0.01046708,0.02010142,-0.03745833,0.04769699,0.08422318,0.07387546,0.0.0.0,10.167.22.1,5,0
2014-11-19 09:00:27.694,163,163,52.33865,4.875702,11.25082,23.89,88.70259,6,5,1416384027,-0.2660675,0.007766724,-0.892334,-11.04359,1.611099,1.416473,84.85635,84.27392,25,0.01053174,-0.02029995,-0.003392601,0.5545024,-0.3379986,0.03618253,-0.003717907,0.005269814,-0.002423418,-0.02260612,0.06939302,-0.01425902,0.0.0.0,10.167.22.1,5,0
2014-11-19 09:00:28.696,164,164,52.33864,4.876069,11.41214,24.27,89.087,6,5,1416384028,-0.3462067,0.005752563,-1.043686,-62.45078,3.927475,-30.04054,82.52386,81.94142,26,0.02639139,-0.01881763,-0.03888455,0.5495279,-0.3396863,0.01873152,0.0597929,-0.008300744,-0.0169163,-0.1942719,0.1137316,-0.3264865,0.0.0.0,10.167.22.1,5,0
2014-11-19 09:00:29.695,165,165,52.33865,4.876461,11.6968,25.51,89.60752,6,5,1416384029,-0.2952118,-0.002883911,-0.9241486,-38.9351,-2.03627,-29.34857,80.77837,80.19594,26,0.01181032,-0.01436456,-0.003418966,0.5434114,-0.3377657,0.02028709,0.00230252,-0.006609433,-0.004019874,-0.08052305,0.002051447,0.05550115,0.0.0.0,10.167.22.1,5,0
2014-11-19 09:00:30.695,166,166,52.33865,4.87684,10.91079,25.41,89.37732,6,5,1416384030,-0.237854,-0.01037598,-0.880722,-65.25889,-9.573013,-46.86588,79.73814,79.15571,26,-0.008609734,-0.02237295,-0.0105874,0.5396477,-0.3299489,0.008680989,-0.004863373,-0.003009724,0.005546207,0.0406573,0.02178818,0.02629974,0.0.0.0,10.167.22.1,5,0
2014-11-19 09:00:31.695,167,167,52.33864,4.8772,10.9385,25.24,89.61546,6,5,1416384031,-0.3849182,-0.07962036,-1.001862,-12.40457,0.4875488,2.310822,79.22788,78.64545,26,0.01128035,0.01584341,-0.03796443,0.5355044,-0.3348953,0.03563363,-0.003048646,0.02099528,-0.009920614,0.03747653,-0.04310926,0.02714291,0.0.0.0,10.167.22.1,5,0
2014-11-19 09:00:32.695,168,168,52.33863,4.877575,11.47757,25.43,89.61546,6,5,1416384032,-0.2726288,-0.0375061,-0.8930511,-9.820419,0.1417847,0.4545135,83.00627,82.42384,25,0.003467436,-0.0118761,-0.004659466,0.5334681,-0.3267275,0.03464294,-0.004686048,-0.01490373,0.0104746,-0.01344517,-0.02496482,0.04815297,0.0.0.0,10.167.22.1,5,0
2014-11-19 09:00:33.696,169,169,52.33864,4.877949,11.70193,25.82,88.11189,6,5,1416384033,-0.3104706,-0.007232666,-1.014496,-9.803185,1.057922,-0.03486633,84.33558,83.75314,25,0.003472496,-0.009543171,-0.001116131,0.5333959,-0.3206175,0.04023782,-0.005466506,0.003160002,-0.002618194,0.03193856,0.03012564,-0.01177968,0.0.0.0,10.167.22.1,5,0
2014-11-19 09:00:34.695,170,170,52.33865,4.878355,11.22183,26.82,90,6,5,1416384034,-0.321701,0.01693726,-0.8866577,-9.596466,0.02076721,-0.1361237,85.15633,84.5739,25,0.01043986,-0.02510535,0.0001893508,0.534428,-0.3198326,0.01135994,0.001334092,-0.007565171,-0.003545149,0.04287249,0.05141402,-0.05132251,0.0.0.0,10.167.22.1,5,0
2014-11-19 09:00:35.695,171,171,52.33865,4.87873,11.94918,26.46,90.40923,6,5,1416384035,-0.3278809,0.08006287,-0.9172211,-11.33643,0.4529419,1.467056,86.943,86.36057,25,-0.001502822,-0.0237514,-0.002247442,0.5335577,-0.3270611,-0.01234061,-0.01449294,-0.01110176,0.005972383,0.007836624,-0.007686366,0.05418775,0.0.0.0,10.167.22.1,5,0
2014-11-19 09:00:36.695,172,172,52.33865,4.879111,11.72836,26.31,90.40923,6,5,1416384036,-0.3573303,0.03553772,-0.9212341,-8.752327,3.011368,0.3869934,83.40363,82.82119,25,0.02298894,0.002467685,-0.0259794,0.5317004,-0.3328778,-0.03333459,-0.01051151,0.01876928,-0.007183044,0.0004717817,0.01456892,0.02081377,0.0.0.0,10.167.22.1,5,0
2014-11-19 09:00:37.694,173,173,52.33865,4.879526,11.74697,26.95,90.73217,6,10,1416384037,-0.3627167,0.04136658,-0.9704742,-8.7351,-0.3248444,0.8764191,83.19473,82.61229,25,0.02413623,0.01050324,-0.004681571,0.5236374,-0.3346253,-0.03579786,-0.00351035,0.007953041,-0.005918665,0.008487458,-0.05574872,-0.02018303,0.0.0.0,10.167.22.1,5,0
2014-11-19 09:00:38.695,174,174,52.33864,4.879888,11.88839,26.17,91.32053,6,5,1416384038,-0.326828,0.009414673,-0.8993073,-9.441437,-0.4458771,0.184494,86.97758,86.39514,25,0.01069126,-0.007243532,-0.001093228,0.5215857,-0.3367054,-0.02686529,-0.001298855,-0.009901427,-0.004683924,-0.005402748,0.007546514,0.0079913,0.0.0.0,10.167.22.1,5,0
2014-11-19 09:00:39.695,175,175,52.33865,4.880352,10.58987,27.44,91.32053,6,10,1416384039,-0.3405609,0.02938843,-0.9462128,-9.941055,-0.3594666,0.5051117,88.95461,88.37218,25,0.008071508,-0.02503238,-0.003378486,0.5198563,-0.3383197,-0.02882364,0.01290103,-0.02193662,-0.003407593,0.002251104,0.006199272,-0.02744557,0.0.0.0,10.167.22.1,5,0
2014-11-19 09:00:40.695,176,176,52.33867,4.880721,10.21872,26.68,91.32053,6,10,1416384040,-0.3573914,0.02015686,-1.007462,-10.11333,-0.3939972,0.3026276,89.79887,89.21643,25,0.01831616,0.01318211,-0.02250531,0.516386,-0.3323166,-0.02951344,0.005034109,0.01515513,-0.002563753,-0.01488121,-0.02836475,0.04053481,0.0.0.0,10.167.22.1,5,0
2014-11-19 09:00:41.695,177,177,52.33865,4.881079,8.625637,25.93,91.94148,6,5,1416384041,-0.3434143,0.02941895,-0.9312744,-9.872162,-0.6706085,-0.1698914,90.46384,89.88141,25,0.005818475,-0.01778938,-0.00935675,0.5118335,-0.3327465,-0.01651935,0.002751158,-0.002585956,-0.003616807,-0.01959589,-0.01711369,0.0293094,0.0.0.0,10.167.22.1,5,0
2014-11-19 09:00:42.696,178,178,52.33863,4.881466,9.359463,25.71,91.94148,6,5,1416384042,-0.3310089,0.01649475,-0.9046631,-9.579285,-0.584198,0.1844788,90.81834,90.2359,25,0.008171377,-0.01440211,0.002490056,0.5123446,-0.3278752,-0.006919151,0.003174109,-0.003866047,0.002493161,0.001849242,0.02643662,-0.006846165,0.0.0.0,10.167.22.1,5,0
2014-11-19 09:00:43.696,179,179,52.33862,4.88184,9.387722,25.64,92.23799,6,10,1416384043,-0.3242035,0.005310059,-0.9614716,-9.906631,-0.1866455,0.4038544,91.13493,90.5525,25,0.02490961,-0.01812681,0.0002218413,0.5120047,-0.3321716,-0.01706043,0.01900839,-0.007525443,-0.004354554,-0.0380255,0.02171298,-0.001349603,0.0.0.0,10.167.22.1,5,0
